[{"lat":"-32.967883","lng":"151.6945872","id":12734455,"name":"SkinKandy Charlestown ","phone":"02 4943 0590","address":"Shop 1115","address2":"Pearson Street","state":"NSW","city":"Charlestown","postal":"2290","priority":1},{"lat":"-32.967883","lng":"151.6945872","id":12734456,"name":"SkinKandy Charlestown Kiosk","phone":"02 4062 0443","address":"K204","address2":"Pearson Street","state":"NSW","city":"Charlestown","postal":"2290","priority":1},{"lat":"-33.944183","lng":"151.2268162","id":12734457,"name":"SkinKandy Eastgardens","phone":"02 8357 9880","address":"Shop 314","address2":"152 Bunnerong Road","state":"NSW","city":"Eastgardens","postal":"2036","priority":1},{"lat":"-33.4338169","lng":"151.3900807","id":12734458,"name":"SkinKandy Erina Fair","phone":"02 4314 6660","address":"T K33","address2":"Terrigal Drive ","state":"NSW","city":"Erina","postal":"2250","priority":1},{"lat":"-32.7440343","lng":"151.5883097","id":12734459,"name":"SkinKandy Green Hills","phone":"02 4036 5036","address":"Shop 067","address2":"1 Molly Morgan Drive","state":"NSW","city":"East Maitland","postal":"2323","priority":1},{"lat":"-32.9427925","lng":"151.6969142","id":12734460,"name":"SkinKandy Kotara","phone":"02 4956 2233","address":"Shop 2029","address2":"Cnr Northcott Dve & Park Avenue","state":"NSW","city":"Kotara ","postal":"2289","priority":1},{"lat":"-34.0666148","lng":"150.8195571","id":12734461,"name":"SkinKandy Macarthur","phone":"02 4610 5642","address":"Shop L02 L100A","address2":"200 Gilchrist Drive","state":"NSW","city":"Campbelltown","postal":"2560","priority":1},{"lat":"-34.0299364","lng":"151.1055499","id":12734462,"name":"SkinKandy Miranda","phone":"02 8518 7342","address":"Shop 1046","address2":"600 Kingsway ","state":"NSW","city":"Miranda","postal":"2228","priority":1},{"lat":"-33.7643009","lng":"150.8174413","id":12734463,"name":"SkinKandy Mount Druitt","phone":"02 9832 3774","address":"Shop 147","address2":"Carlisle Avenue","state":"NSW","city":"Mount Druitt","postal":"2770","priority":1},{"lat":"-34.0415335","lng":"150.7323054","id":12734464,"name":"SkinKandy Narellan","phone":"02 4647 4779","address":"Shop 76A","address2":"326 Camden Valley Way","state":"NSW","city":"Narellan","postal":"2567","priority":1},{"lat":"-33.814785","lng":"151.0017218","id":12734465,"name":"SkinKandy Paramatta","phone":"02 97808 1456","address":"Shop 5024","address2":"159-175 Church Street","state":"NSW","city":"Paramatta","postal":"2150","priority":1},{"lat":"-33.7506759","lng":"150.687674","id":12734466,"name":"Skinkandy Penrith","phone":"02 4271 8985","address":"Shop 83","address2":"585 High Street","state":"NSW","city":"Penrith","postal":"2750","priority":1},{"lat":"-34.5794495","lng":"150.8665191","id":12734467,"name":"SkinKandy Shellharbour","phone":"02 4209 3002","address":"Shop 2028","address2":"211 Lake Entrance Road","state":"NSW","city":"Shellharbour","postal":"2529","priority":1},{"lat":"-33.3092714","lng":"151.4174771","id":12734468,"name":"SkinKandy Tuggerah","phone":"02 4351 2413","address":"Shop 2022","address2":" 50 Wyong Road","state":"NSW","city":"Tuggerah","postal":"2259","priority":1},{"lat":"-33.76497","lng":"151.2704476","id":12734469,"name":"Skinkandy Warringah","phone":"02 9905 0846","address":"Shop 1021","address2":"Cnr Condamine Street & Old Pittwater Road","state":"NSW","city":"Brookvale","postal":"2100","priority":1},{"lat":"-33.7660982","lng":"150.9126927","id":12734470,"name":"SkinKandy Westpoint","phone":"02 8662 0440","address":"Shop 1030A","address2":"17 Patarick Street","state":"NSW","city":"Blacktown","postal":"2148","priority":1},{"lat":"-34.4248336","lng":"150.8931132","id":12734471,"name":"SkinKandy Wollongong","phone":"02 4225 8723","address":"Shop 18","address2":"North Building, Crown Street","state":"NSW","city":"Wollongong","postal":"2500","priority":1},{"lat":"-24.8661024","lng":"152.3488923","id":12734472,"name":"SkinKandy Bundaberg","phone":"07 4151 8411","address":"Shop 66","address2":"16 Maryborough Street","state":"QLD","city":"Bundaberg","postal":"4670","priority":1},{"lat":"-16.9203476","lng":"145.7709529","id":12734473,"name":"SkinKandy Cairns","phone":"07 4249 3589","address":"Shop L01 KU12","address2":"1\/21 McLeod Street","state":"QLD ","city":"Cairns","postal":"4870","priority":1},{"lat":"-27.5198367","lng":"153.1125044","id":12734474,"name":"SkinKandy Carindale","phone":"07 35589653","address":"Shop F06","address2":"1151 Crreek Road","state":"QLD","city":"Carindale","postal":"4152","priority":1},{"lat":"-27.3858322","lng":"153.0310009","id":12734475,"name":"SkinKandy Chermside","phone":"07 3350 6510","address":"Shop 346","address2":"Cnr Gympie & Hamilton Road","state":"QLD","city":"Chermside","postal":"4032","priority":1},{"lat":"-27.5546971","lng":"153.0799661","id":12734476,"name":"SkinKandy Garden City","phone":"07 3849 2517","address":"Shop 1064","address2":"2320 Logan Road","state":"QLD","city":"Upper Mount Gravatt","postal":"4122","priority":1},{"lat":"-27.6076201","lng":"152.7624139","id":12734477,"name":"SkinKandy Ipswich","phone":"07 2800 8000","address":"K6","address2":"Downs Street & The Terrace","state":"QLD","city":"North Ipswich","postal":"4305","priority":1},{"lat":"-27.6908433","lng":"153.1783362","id":12734478,"name":"SkinKandy Logan","phone":"07 3133 0003","address":"Shop 089A","address2":"Cnr Bryants Road & Pacific Hwy","state":"QLD","city":"Loganholme","postal":"4129","priority":1},{"lat":"-21.1433971","lng":"149.1868281","id":12734479,"name":"SkinKandy Mackay","phone":"07 4999 9724","address":"Lvl 1 Shop 2505","address2":"2 Mangrove Road ","state":"QLD ","city":"Mackay","postal":"4740","priority":1},{"lat":"-26.6520957","lng":"153.0826248","id":12734480,"name":"SkinKandy Maroochydore","phone":"07 5443 6222","address":"Shop 145","address2":"154-164 Horton Parade","state":"QLD","city":"Maroochydore","postal":"4558","priority":1},{"lat":"-27.1053809","lng":"152.9476706","id":12734481,"name":"SkinKandy Morayfield","phone":"07 5495 8369","address":"Shop 66A","address2":"171 Morayfield Road","state":"QLD","city":"Morayfield","postal":"4506","priority":1},{"lat":"-27.220025","lng":"153.0054444","id":12734482,"name":"SkinKandy North Lakes","phone":"07 3482 4912","address":"Shop 1166A","address2":"Anzac Avenue & North Lakes Drive","state":"QLD","city":"North Lakes ","postal":"4509","priority":1},{"lat":"-28.0293438","lng":"153.4311592","id":12734483,"name":"Skinkandy Pacific Fair","phone":"07 5561 0026","address":"Shop 316 ","address2":"Hooker Blvd","state":"QLD","city":"Broadbeach","postal":"4218","priority":1},{"lat":"-28.0677329","lng":"153.397418","id":12734484,"name":"Skinkandy Robina","phone":"07 5562 0314","address":"Shop 4097A","address2":"Robina Town Centre Drive","state":"QLD","city":"Robina","postal":"4230","priority":1},{"lat":"-23.3786203","lng":"150.5088889","id":12734485,"name":"SkinKandy Rockhampton","phone":"07 4921 0846","address":"Shop 227","address2":"Cnr Yaamba Rd & Hwy One","state":"QLD","city":"North Rockhampton","postal":"4701","priority":1},{"lat":"-27.5598212","lng":"151.9506696","id":12734486,"name":"SkinKandy Toowoomba","phone":"07 4613 0139","address":"Shop 91","address2":"Margaret Street","state":"QLD","city":"Toowoomba","postal":"4350","priority":1},{"lat":"-19.2991072","lng":"146.7684499","id":12734487,"name":"SkinKandy Townsville","phone":"07 4728 6261","address":"Shop 38","address2":"310-330 Ross River Road","state":"QLD","city":"Aitkenvale","postal":"4814","priority":1},{"lat":"-38.1466246","lng":"145.135722","id":12734488,"name":"SkinKandy Bayside","phone":"03 87634025","address":"Shop G030","address2":"28 Beach Street","state":"VIC ","city":"Frankston","postal":"3199","priority":1},{"lat":"-37.787397","lng":"145.1248634","id":12734489,"name":"SkinKandy Donaster","phone":"03 9087 1072","address":"Shop 1051","address2":"619 Doncaster Road","state":"VIC","city":"Doncaster","postal":"3108","priority":1},{"lat":"-37.8145771","lng":"145.2310109","id":12734490,"name":"SkinKandy Eastlands","phone":"03 8820 8127","address":"Shop 2066","address2":"171-175 Maroondah Hwy","state":"VIC","city":"Ringwood","postal":"3134","priority":1},{"lat":"-38.0175702","lng":"145.3042624","id":12734491,"name":"SkinKandy Fountain Gate","phone":"03 8704 1229","address":"Shop 1034","address2":"352 Princes Hwy","state":"VIC","city":"Fountain Gate","postal":"3805","priority":1},{"lat":"-38.1492994","lng":"144.3598426","id":12734492,"name":"SkinKandy Geelong","phone":"03 4224 0061","address":"Shop 2239","address2":"95 Malop Street","state":"VIC","city":"Geelong","postal":"3220","priority":1},{"lat":"-37.7837482","lng":"144.8908713","id":12734493,"name":"SkinKandy Highpoint","phone":"03 9317 0916","address":"Shop 1110","address2":"Level 1, 120-200 Rosamond Rd","state":"VIC","city":"Maribyrnong","postal":"3032","priority":1},{"lat":"-37.7450963","lng":"145.0028571","id":12734494,"name":"SkinKandy Northland","phone":"03 9119 0290","address":"Shop C029","address2":"2-50 Murray Road","state":"VIC","city":"Preston","postal":"3072","priority":1},{"lat":"-37.9656436","lng":"145.0578515","id":12734495,"name":"SkinKandy Southland","phone":"03 9087 6186","address":"Shop 3070","address2":"1239-1241 Nepean Highway","state":"VIC","city":"Cheltenham","postal":"3192","priority":1},{"lat":"-34.7216115","lng":"138.6692119","id":12734496,"name":"SkinKandy Elizabeth","phone":"08 7286 9072","address":"SK07","address2":"50 Elizabeth Way (Kiosk)","state":"SA","city":"Elizabeth","postal":"5112","priority":1},{"lat":"-35.0091223","lng":"138.5551196","id":12734497,"name":"SkinKandy Marion","phone":"08 8423 9902","address":"Shop 2016","address2":"297 Diagonal Road","state":"SA ","city":"Marion","postal":"5046","priority":1},{"lat":"-35.1402664","lng":"138.5023679","id":12734498,"name":"SkinKandy Colonnades","phone":"08 7260 3066","address":"Shop YF63","address2":"Beach Road","state":"SA","city":"Noarlunga Centre","postal":"5168","priority":1},{"lat":"-32.0180822","lng":"115.9349285","id":12734499,"name":"SkinKandy Carousel","phone":"08 6149 8980","address":"Shop 1048","address2":"1382 Albany Hwy","state":"WA","city":"Cannington","postal":"6107","priority":1},{"lat":"-35.2218989","lng":"149.0353134","id":12734500,"name":"SkinKandy Belconnen","phone":"02 6106 9338","address":"Shop 129","address2":"Benjamin Way","state":"ACT","city":"Belconnen","postal":"2617","priority":1}]